var points=[{"id":8373,"name":"宁夏泾源县东山坡充电站","longitude":"106.283000","latitude":"35.621000","img":"/styles/pcmap/img/c/trd.png","fastChargingPileCount":0,"slowChargingPileCount":3,"address":"宁夏回族自治区固原市泾源县东山坡小学北350米"},{"id":8374,"name":"宁夏泾源县马西坡充电站","longitude":"106.290999","latitude":"35.605999","img":"/styles/pcmap/img/c/trd.png","fastChargingPileCount":0,"slowChargingPileCount":2,"address":"宁夏回族自治区固原市泾源县马西坡村委会北300米"},{"id":14237,"name":"宁夏银川市金凤区上海西路478号新新家园充电点","longitude":"106.20048","latitude":"38.4959757","img":"/styles/pcmap/img/c/gjdw.png","fastChargingPileCount":0,"slowChargingPileCount":2,"address":"银川市金凤区上海西路478号新新家园小区内"},{"id":14765,"name":"宁夏银川市金凤区福州北街未来城地下停车场充电站","longitude":"106.20027","latitude":"38.4999578","img":"/styles/pcmap/img/c/gjdw.png","fastChargingPileCount":0,"slowChargingPileCount":4,"address":"宁夏银川市金凤区福州北街未来城地下停车场"},{"id":14960,"name":"宁夏回族自治区固原市原州区中山北街北塬供电局停车场充电站","longitude":"106.29714","latitude":"36.0248538","img":"/styles/pcmap/img/c/gjdw.png","fastChargingPileCount":0,"slowChargingPileCount":2,"address":"固原市原州区中山北街北原小区旁1号"},{"id":15016,"name":"甘肃省平凉市崆峒区新裕小区公共充电点","longitude":"106.39152","latitude":"35.3367181","img":"/styles/pcmap/img/c/gjdw.png","fastChargingPileCount":0,"slowChargingPileCount":1,"address":"平凉市崆峒区西郊街道二天门社区崆峒大道新裕小区"},{"id":15017,"name":"甘肃省平凉市崆峒区崆峒古镇停车场公共充电点（南边）","longitude":"106.35086","latitude":"35.3373371","img":"/styles/pcmap/img/c/gjdw.png","fastChargingPileCount":0,"slowChargingPileCount":2,"address":"平凉市崆峒区崆峒古镇停车场"},{"id":15018,"name":"甘肃省平凉市崆峒区广成路社区公共充电点（南边）","longitude":"106.41542","latitude":"35.3331146","img":"/styles/pcmap/img/c/gjdw.png","fastChargingPileCount":0,"slowChargingPileCount":1,"address":"平凉市崆峒区中街街道广成路社区广成路1号广成路社区"},{"id":15019,"name":"甘肃省平凉市崆峒区广成路社区公共充电点（北边）","longitude":"106.41540","latitude":"35.3331303","img":"/styles/pcmap/img/c/gjdw.png","fastChargingPileCount":0,"slowChargingPileCount":1,"address":"平凉市崆峒区中街街道广成路社区广成路1号广成路社区"},{"id":16327,"name":"宁夏银川市灵武市中兴路灵武供电公司充电点","longitude":"106.34154","latitude":"38.1052064","img":"/styles/pcmap/img/c/gjdw.png","fastChargingPileCount":0,"slowChargingPileCount":2,"address":"宁夏银川市灵武市中兴路灵武供电公司门口"},{"id":16333,"name":"宁夏银川市兴庆区长城东路281号电力设计院充电点","longitude":"106.28223","latitude":"38.4670050","img":"/styles/pcmap/img/c/gjdw.png","fastChargingPileCount":0,"slowChargingPileCount":2,"address":"宁夏银川市兴庆区长城东路281号电力设计院门内"},{"id":16335,"name":"宁夏银川市金凤区万寿路177号市民大厅停车场充电站","longitude":"106.24623","latitude":"38.5328017","img":"/styles/pcmap/img/c/gjdw.png","fastChargingPileCount":0,"slowChargingPileCount":15,"address":"宁夏银川市金凤区万寿路177号市民大厅停车场北侧"},{"id":16337,"name":"宁夏银川市西夏区文萃路5号供电营业厅充电点","longitude":"106.14386","latitude":"38.4918181","img":"/styles/pcmap/img/c/gjdw.png","fastChargingPileCount":0,"slowChargingPileCount":2,"address":"宁夏银川市西夏区文萃路5号"},{"id":16339,"name":"宁夏银川市正源北街东延长线通山路奥特莱斯充电站","longitude":"106.30868","latitude":"38.5888209","img":"/styles/pcmap/img/c/gjdw.png","fastChargingPileCount":0,"slowChargingPileCount":15,"address":"宁夏银川市正源北街东延长线通山路（金沙生态园向西800米）"},{"id":16340,"name":"宁夏银川市西夏区同心北街220-7号银川市同心园小区充电点","longitude":"106.12934","latitude":"38.4987686","img":"/styles/pcmap/img/c/gjdw.png","fastChargingPileCount":0,"slowChargingPileCount":2,"address":"银川市西夏区同心北街220-7号同心园北门内"},{"id":16343,"name":"宁夏银川市永宁县宁和北街与迎宾大道交叉口永宁县供电公司充电点","longitude":"106.26209","latitude":"38.2931777","img":"/styles/pcmap/img/c/gjdw.png","fastChargingPileCount":0,"slowChargingPileCount":2,"address":"宁夏银川市永宁县宁和北街与迎宾大道交叉口西北100米永宁县供电公司"},{"id":16347,"name":"宁夏银川市金凤区新昌东路222号银川供电公司地下停车场充电站（内部专用）","longitude":"106.24884","latitude":"38.4829184","img":"/styles/pcmap/img/c/gjdw.png","fastChargingPileCount":0,"slowChargingPileCount":1,"address":"宁夏银川市金凤区新昌东路222号国网银川市供电公司"},{"id":16353,"name":"宁夏银川市兴庆区凤凰北街327号海宝充电站","longitude":"106.27170","latitude":"38.4899600","img":"/styles/pcmap/img/c/gjdw.png","fastChargingPileCount":0,"slowChargingPileCount":4,"address":"宁夏银川市兴庆区凤凰北街327号海宝充电站院内"},{"id":16354,"name":"宁夏银川市贺兰县银河西路85号贺兰县供电公司充电点","longitude":"106.27323","latitude":"38.5183336","img":"/styles/pcmap/img/c/gjdw.png","fastChargingPileCount":0,"slowChargingPileCount":2,"address":"宁夏银川市贺兰县银河西路85号贺兰县供电公司"},{"id":16356,"name":"国网银川市供电公司停车场充电站","longitude":"106.24884","latitude":"38.4829184","img":"/styles/pcmap/img/c/gjdw.png","fastChargingPileCount":0,"slowChargingPileCount":2,"address":"宁夏银川市金凤区新昌东路222号国网银川市供电公司西门内"},{"id":16361,"name":"宁夏银川市金凤区满城北街惠北巷英B新能源停车场充电站","longitude":"106.31820","latitude":"38.5162817","img":"/styles/pcmap/img/c/gjdw.png","fastChargingPileCount":3,"slowChargingPileCount":0,"address":"宁夏银川市金凤区满城北街惠北巷（未来城东北150米）停车场"},{"id":16362,"name":"宁夏银川市滨海新区规划展示馆充电站","longitude":"106.51930","latitude":"38.5497419","img":"/styles/pcmap/img/c/gjdw.png","fastChargingPileCount":0,"slowChargingPileCount":9,"address":"宁夏银川市滨海新区规划1展示馆附近"},{"id":16364,"name":"宁夏银川市贺兰县虹桥北路6号凯晨电气充电点","longitude":"106.31823","latitude":"38.5502836","img":"/styles/pcmap/img/c/gjdw.png","fastChargingPileCount":0,"slowChargingPileCount":2,"address":"宁夏银川市贺兰县虹桥北路6号凯晨电气停车场"},{"id":16365,"name":"宁夏银川市金凤区六盘山路与李银路交叉口东上前城快速充电站","longitude":"106.26967","latitude":"38.4297717","img":"/styles/pcmap/img/c/gjdw.png","fastChargingPileCount":8,"slowChargingPileCount":0,"address":"宁夏银川市金凤区李银路交叉口东100米加油站内"},{"id":16366,"name":"宁夏银川市长城东路277号能源小区门口公共充电点","longitude":"106.27769","latitude":"38.4636382","img":"/styles/pcmap/img/c/gjdw.png","fastChargingPileCount":0,"slowChargingPileCount":2,"address":"宁夏银川市长城东路277号能源小区门口"},{"id":16369,"name":"宁夏银川市工农巷17号龙马广场地下停车场充电站","longitude":"106.28533","latitude":"38.4709733","img":"/styles/pcmap/img/c/gjdw.png","fastChargingPileCount":0,"slowChargingPileCount":22,"address":"宁夏银川市工农巷17号（鼓楼西南角）"},{"id":16371,"name":"宁夏银川市金凤区黄河东路663号中铝宁夏发电集团充电点","longitude":"106.23061","latitude":"38.4807051","img":"/styles/pcmap/img/c/gjdw.png","fastChargingPileCount":0,"slowChargingPileCount":2,"address":"宁夏银川市金凤区黄河东路663号"},{"id":16373,"name":"宁夏银川市金凤区万寿路177号市民大厅停车场良田快速充电站","longitude":"106.14825","latitude":"38.3221871","img":"/styles/pcmap/img/c/gjdw.png","fastChargingPileCount":8,"slowChargingPileCount":0,"address":"宁夏银川市金凤区万寿路177号市民大厅停车场北边东侧"},{"id":16374,"name":"宁夏银川市金凤区宝湖路湖映康晨充电点","longitude":"106.26142","latitude":"38.4505318","img":"/styles/pcmap/img/c/gjdw.png","fastChargingPileCount":0,"slowChargingPileCount":2,"address":"宁夏银川市金凤区宝湖路湖映康晨小区东门口"},{"id":16375,"name":"宁夏银川市正源北街东延长线通山路新能源体验中心充电站","longitude":"106.28204","latitude":"38.5846095","img":"/styles/pcmap/img/c/gjdw.png","fastChargingPileCount":2,"slowChargingPileCount":0,"address":"宁夏银川市正源北街东延长线通山路（银川奥特莱斯西边400米）"},{"id":16376,"name":"宁夏银川市西夏区文萃路288号爱佩克斯充电站","longitude":"106.14064","latitude":"38.4601219","img":"/styles/pcmap/img/c/gjdw.png","fastChargingPileCount":1,"slowChargingPileCount":2,"address":"宁夏银川市西夏区文萃南街288号战略新型材料加工区4号厂房"},{"id":16379,"name":"宁夏石嘴山市大武口区胜利西街46号公共充电点","longitude":"106.38886","latitude":"39.0289524","img":"/styles/pcmap/img/c/gjdw.png","fastChargingPileCount":0,"slowChargingPileCount":2,"address":"宁夏石嘴山市大武口区胜利西街46号"},{"id":16380,"name":"宁夏吴忠市利通区友谊东路供电公司充电站","longitude":"106.21010","latitude":"37.9796096","img":"/styles/pcmap/img/c/gjdw.png","fastChargingPileCount":0,"slowChargingPileCount":2,"address":"吴忠市利通区客服中心门口"},{"id":16381,"name":"宁夏吴忠市利通区富平街御龙府充电站","longitude":"106.18687","latitude":"38.0031120","img":"/styles/pcmap/img/c/gjdw.png","fastChargingPileCount":0,"slowChargingPileCount":2,"address":"吴忠市利通区御龙府门口"},{"id":16382,"name":"宁夏吴忠市利通区马家庄子古城湾新村充电站","longitude":"106.20902","latitude":"38.0459484","img":"/styles/pcmap/img/c/gjdw.png","fastChargingPileCount":0,"slowChargingPileCount":2,"address":"吴忠市利通区古城湾门口"},{"id":16383,"name":"宁夏吴忠市利通区裕民西街吴忠宾馆充电站","longitude":"106.19939","latitude":"37.9912590","img":"/styles/pcmap/img/c/gjdw.png","fastChargingPileCount":0,"slowChargingPileCount":2,"address":"吴忠市利通区吴忠宾馆门口"},{"id":16384,"name":"宁夏中卫市鼓楼西街沙坡头区客户服务中心充电站","longitude":"105.17539","latitude":"37.5208981","img":"/styles/pcmap/img/c/gjdw.png","fastChargingPileCount":0,"slowChargingPileCount":2,"address":"宁夏中卫市鼓楼西街沙坡头区客户服务中心"},{"id":16385,"name":"宁夏中卫市丰安东路供电公司充电站","longitude":"105.20570","latitude":"37.5046033","img":"/styles/pcmap/img/c/gjdw.png","fastChargingPileCount":0,"slowChargingPileCount":2,"address":"宁夏中卫市丰安东路中卫市供电公司"}]