var points=[{"id":7199,"name":"新疆克勒玛依项目(交流)","longitude":"84.874356","latitude":"45.608493","img":"/styles/pcmap/img/c/xxcd.png","fastChargingPileCount":0,"slowChargingPileCount":20,"address":"新疆克拉玛依市克勒玛依区"},{"id":7200,"name":"新疆克勒玛依项目(高压直流)","longitude":"84.874433","latitude":"45.608572","img":"/styles/pcmap/img/c/xxcd.png","fastChargingPileCount":0,"slowChargingPileCount":0,"address":"新疆克拉玛依市克勒玛依区"},{"id":7201,"name":"新疆克勒玛依项目(低压直流)","longitude":"84.874307","latitude":"45.608459","img":"/styles/pcmap/img/c/xxcd.png","fastChargingPileCount":1,"slowChargingPileCount":0,"address":"新疆克拉玛依市克勒玛依区"},{"id":13818,"name":"新疆博乐市北京路充电点","longitude":"82.072695","latitude":"44.8974070","img":"/styles/pcmap/img/c/gjdw.png","fastChargingPileCount":0,"slowChargingPileCount":2,"address":"新疆博乐市北京路312号电力宾馆"},{"id":16351,"name":"新疆乌鲁木齐新市区银川路充电点","longitude":"87.598455","latitude":"43.8558280","img":"/styles/pcmap/img/c/gjdw.png","fastChargingPileCount":0,"slowChargingPileCount":2,"address":"乌鲁木齐市新市区银川路706号"},{"id":16917,"name":"新疆乌鲁木齐沙依巴克区友好北路充电点","longitude":"87.595473","latitude":"43.8307964","img":"/styles/pcmap/img/c/gjdw.png","fastChargingPileCount":0,"slowChargingPileCount":2,"address":"乌鲁木齐市沙依巴克区友好北路14号"},{"id":16919,"name":"新疆乌鲁木齐开发区屯坪南路充电点","longitude":"87.312223","latitude":"43.8738365","img":"/styles/pcmap/img/c/gjdw.png","fastChargingPileCount":0,"slowChargingPileCount":2,"address":"乌鲁木齐市开发区屯坪南路118号"},{"id":16920,"name":"新疆乌鲁木齐米东中路公共充电点","longitude":"87.668515","latitude":"43.9592800","img":"/styles/pcmap/img/c/gjdw.png","fastChargingPileCount":0,"slowChargingPileCount":2,"address":"乌鲁木齐市米东中路1608号"},{"id":16921,"name":"新疆乌鲁木齐天山区天百商场充电点","longitude":"87.632098","latitude":"43.8006580","img":"/styles/pcmap/img/c/gjdw.png","fastChargingPileCount":0,"slowChargingPileCount":2,"address":"乌鲁木齐市天山区和平北路16号"},{"id":16923,"name":"新疆乌鲁木齐沙依巴克区友好百盛商场充电点","longitude":"87.606689","latitude":"43.8104977","img":"/styles/pcmap/img/c/gjdw.png","fastChargingPileCount":0,"slowChargingPileCount":2,"address":"乌鲁木齐市沙依巴克区友好南路668号"},{"id":16925,"name":"新疆乌鲁木齐水磨沟区红光山充电站","longitude":"87.622759","latitude":"43.8856935","img":"/styles/pcmap/img/c/gjdw.png","fastChargingPileCount":4,"slowChargingPileCount":4,"address":"乌鲁木齐市水磨沟区会展北路"},{"id":16926,"name":"新疆乌鲁木齐新天润国际社区二期公共充电点","longitude":"87.550377","latitude":"43.9222237","img":"/styles/pcmap/img/c/gjdw.png","fastChargingPileCount":0,"slowChargingPileCount":5,"address":"乌鲁木齐市新天润国际社区二期地下停车场"},{"id":16927,"name":"新疆阿勒泰市团结路充电点","longitude":"88.137146","latitude":"47.8337585","img":"/styles/pcmap/img/c/gjdw.png","fastChargingPileCount":0,"slowChargingPileCount":1,"address":"阿勒泰市团结路"},{"id":16928,"name":"新疆喀什市托克扎克路充电点","longitude":"75.989326","latitude":"39.4683325","img":"/styles/pcmap/img/c/gjdw.png","fastChargingPileCount":0,"slowChargingPileCount":2,"address":"喀什地区喀什市托克扎克路158号"},{"id":16929,"name":"新疆哈密市天马商城充电点","longitude":"93.321124","latitude":"42.4994665","img":"/styles/pcmap/img/c/gjdw.png","fastChargingPileCount":0,"slowChargingPileCount":2,"address":"哈密市天山北路20号天马商城"},{"id":16930,"name":"新疆哈密市阿丫小区充电点","longitude":"93.306277","latitude":"42.5112322","img":"/styles/pcmap/img/c/gjdw.png","fastChargingPileCount":0,"slowChargingPileCount":2,"address":"阿牙桥路25号阿雅小区"},{"id":16931,"name":"新疆哈密市融合路充电点","longitude":"93.317646","latitude":"42.5063567","img":"/styles/pcmap/img/c/gjdw.png","fastChargingPileCount":0,"slowChargingPileCount":2,"address":"新疆哈密市伊州区融合路24号"},{"id":16932,"name":"新疆塔城市光明路充电点","longitude":"82.978175","latitude":"46.7485219","img":"/styles/pcmap/img/c/gjdw.png","fastChargingPileCount":0,"slowChargingPileCount":2,"address":"新疆维吾尔自治区塔城地区塔城市光明路42号"},{"id":16933,"name":"新疆高昌区西环路充电点","longitude":"89.173317","latitude":"42.9453940","img":"/styles/pcmap/img/c/gjdw.png","fastChargingPileCount":0,"slowChargingPileCount":1,"address":"吐鲁番高昌区西环路"}]