var points=[{"id":972,"name":"杜鹃广场充电站","longitude":"112.945343","latitude":"28.232533","img":"/styles/pcmap/img/c/ccz.png","fastChargingPileCount":5,"slowChargingPileCount":5,"address":"湖南省长沙市岳麓大道杜鹃广场南面"},{"id":1239,"name":"清石路公交站","longitude":"113.100913","latitude":"27.899953","img":"/styles/pcmap/img/c/ptxny.png","fastChargingPileCount":3,"slowChargingPileCount":0,"address":"中国湖南省株洲市石峰区清石路"},{"id":1240,"name":"株洲公交总公司站","longitude":"113.140869","latitude":"27.819713","img":"/styles/pcmap/img/c/ptxny.png","fastChargingPileCount":6,"slowChargingPileCount":0,"address":"湖南省株洲市天元区黄河南路262号"},{"id":1648,"name":"长沙市国税局车辆购置税分局充电站","longitude":"113.075874","latitude":"28.244048","img":"/styles/pcmap/img/c/trd.png","fastChargingPileCount":0,"slowChargingPileCount":10,"address":"湖南省长沙市长沙县蒸湘路351号"},{"id":1649,"name":"长沙市中国银行银园公寓充电站","longitude":"113.004210","latitude":"28.192860","img":"/styles/pcmap/img/c/trd.png","fastChargingPileCount":2,"slowChargingPileCount":8,"address":"湖南省长沙市芙蓉区韶山北路窑岭北177号"},{"id":1653,"name":"长沙延年世纪大酒店充电站","longitude":"113.014651","latitude":"28.238245","img":"/styles/pcmap/img/c/trd.png","fastChargingPileCount":0,"slowChargingPileCount":6,"address":"湖南省长沙市开福区开福区三一路与车站北路交汇处"},{"id":1656,"name":"湖南佳兴世尊酒店充电站","longitude":"112.939093","latitude":"28.218295","img":"/styles/pcmap/img/c/trd.png","fastChargingPileCount":4,"slowChargingPileCount":15,"address":"湖南省长沙市岳麓区金星路247号"},{"id":1664,"name":"长沙金霞开发区充电站","longitude":"112.948729","latitude":"28.331699","img":"/styles/pcmap/img/c/trd.png","fastChargingPileCount":2,"slowChargingPileCount":18,"address":"湖南省长沙市开福区新港大道30号"},{"id":1681,"name":"长沙开福区政府充电站","longitude":"112.986118","latitude":"28.255976","img":"/styles/pcmap/img/c/trd.png","fastChargingPileCount":0,"slowChargingPileCount":30,"address":"湖南省长沙市开福区芙蓉北路与盛世路交汇处"},{"id":1684,"name":"长沙湘诚德峰小区充电站","longitude":"112.963313","latitude":"28.316626","img":"/styles/pcmap/img/c/trd.png","fastChargingPileCount":0,"slowChargingPileCount":35,"address":"湖南省长沙市开福区芙蓉北路与新安路交汇处西北角"},{"id":1687,"name":"长沙爵士湘小区充电站","longitude":"113.127534","latitude":"28.224723","img":"/styles/pcmap/img/c/trd.png","fastChargingPileCount":2,"slowChargingPileCount":18,"address":"湖南省长沙市长沙县盼盼路与东四线交汇处西北角"},{"id":1728,"name":"长沙县鸿润园小区充电站","longitude":"113.140135","latitude":"28.181302","img":"/styles/pcmap/img/c/trd.png","fastChargingPileCount":2,"slowChargingPileCount":8,"address":"湖南省长沙市长沙县黄兴大道与东升路交汇处西南角"},{"id":1732,"name":"湖南芒果汽车之家充电站","longitude":"112.967681","latitude":"28.348567","img":"/styles/pcmap/img/c/trd.png","fastChargingPileCount":2,"slowChargingPileCount":8,"address":"湖南省长沙市开福区青竹湖路399号"},{"id":1734,"name":"长沙橄榄城小区一期充电站","longitude":"113.109275","latitude":"28.223179","img":"/styles/pcmap/img/c/trd.png","fastChargingPileCount":4,"slowChargingPileCount":16,"address":"湖南省长沙市长沙县盼盼路与东四线交汇处西南角"},{"id":1745,"name":"长沙县紫鑫大酒店充电站","longitude":"113.083871","latitude":"28.236920","img":"/styles/pcmap/img/c/trd.png","fastChargingPileCount":2,"slowChargingPileCount":8,"address":"湖南省长沙市长沙县板仓中路1号"},{"id":1750,"name":"长沙瑞都豪庭小区充电站","longitude":"113.002406","latitude":"28.239601","img":"/styles/pcmap/img/c/trd.png","fastChargingPileCount":4,"slowChargingPileCount":16,"address":"湖南省长沙市开福区陡岭路180号"},{"id":1761,"name":"长沙星沙产业管委会充电站","longitude":"113.179306","latitude":"28.257228","img":"/styles/pcmap/img/c/trd.png","fastChargingPileCount":0,"slowChargingPileCount":8,"address":"湖南省长沙市长沙县开元东路1318号"},{"id":1790,"name":"长沙雅尊戴斯充电站","longitude":"113.004716","latitude":"28.203659","img":"/styles/pcmap/img/c/trd.png","fastChargingPileCount":2,"slowChargingPileCount":8,"address":"湖南省长沙市芙蓉区八一路298号"},{"id":1843,"name":"长沙县尚城小区充电站","longitude":"113.092916","latitude":"28.252100","img":"/styles/pcmap/img/c/trd.png","fastChargingPileCount":0,"slowChargingPileCount":3,"address":"湖南省长沙市长沙县星沙大道与开元路交汇处"},{"id":1851,"name":"长沙县领航大酒店充电站","longitude":"113.222737","latitude":"28.200094","img":"/styles/pcmap/img/c/trd.png","fastChargingPileCount":5,"slowChargingPileCount":12,"address":"湖南省长沙市长沙县机场大道黄花机场T2航站楼北侧"},{"id":1875,"name":"长沙县中部智谷产业园一期充电站","longitude":"113.138693","latitude":"28.208720","img":"/styles/pcmap/img/c/trd.png","fastChargingPileCount":1,"slowChargingPileCount":4,"address":"湖南省长沙市长沙县星沙经济技术开发区人民东路与黄兴大道交汇处"},{"id":1910,"name":"长沙教育学院充电站","longitude":"112.960260","latitude":"28.208634","img":"/styles/pcmap/img/c/trd.png","fastChargingPileCount":3,"slowChargingPileCount":12,"address":"湖南省长沙市岳麓区望月湖杜家塘路8号"},{"id":1931,"name":"长沙西子湖畔沃府充电站","longitude":"112.943477","latitude":"28.217100","img":"/styles/pcmap/img/c/trd.png","fastChargingPileCount":0,"slowChargingPileCount":4,"address":"湖南省长沙市岳麓区金星中路288号"},{"id":3218,"name":"宁乡碧桂园凤凰酒店充电站","longitude":"112.691276","latitude":"28.258153","img":"/styles/pcmap/img/c/trd.png","fastChargingPileCount":2,"slowChargingPileCount":8,"address":"湖南省长沙市宁乡县金洲新区金洲大道288号"},{"id":3225,"name":"长沙众泰瑞与祺服务站充电站","longitude":"113.081586","latitude":"28.261312","img":"/styles/pcmap/img/c/trd.png","fastChargingPileCount":0,"slowChargingPileCount":10,"address":"湖南省长沙市长沙县特立路1号"},{"id":3253,"name":"长沙航空职业技术学院充电站","longitude":"113.052334","latitude":"28.034026","img":"/styles/pcmap/img/c/trd.png","fastChargingPileCount":4,"slowChargingPileCount":16,"address":"湖南省长沙市长沙县跳马镇田心桥村"},{"id":3285,"name":"湖南天赐园书院酒店充电站","longitude":"113.091419","latitude":"28.031650","img":"/styles/pcmap/img/c/trd.png","fastChargingPileCount":1,"slowChargingPileCount":4,"address":"湖南省长沙市长沙县跳马镇石燕湖村"},{"id":3301,"name":"长沙湘麓汇酒店充电站","longitude":"112.916704","latitude":"28.216066","img":"/styles/pcmap/img/c/trd.png","fastChargingPileCount":2,"slowChargingPileCount":18,"address":"湖南省长沙市岳麓区枫林三路98-100号"},{"id":3312,"name":"长沙盛淮服务站充电站","longitude":"113.081562","latitude":"28.245878","img":"/styles/pcmap/img/c/trd.png","fastChargingPileCount":2,"slowChargingPileCount":8,"address":"湖南省长沙市长沙县东升路46号"},{"id":3388,"name":"长沙丽星奔驰4S店充电站","longitude":"112.995038","latitude":"28.240915","img":"/styles/pcmap/img/c/trd.png","fastChargingPileCount":1,"slowChargingPileCount":4,"address":"湖南省长沙市开福区芙蓉北路二段"},{"id":3754,"name":"新能源新发展活动充电站","longitude":"112.967682","latitude":"28.348567","img":"/styles/pcmap/img/c/trd.png","fastChargingPileCount":1,"slowChargingPileCount":6,"address":"湖南省长沙市开福区青竹湖路399号"},{"id":3765,"name":"长沙洪山街道管理局充电站","longitude":"113.024555","latitude":"28.255424","img":"/styles/pcmap/img/c/trd.png","fastChargingPileCount":2,"slowChargingPileCount":7,"address":"湖南省长沙市开福区东二环三段279号"},{"id":3784,"name":"长沙天心区工商局充电站","longitude":"112.998567","latitude":"28.119490","img":"/styles/pcmap/img/c/trd.png","fastChargingPileCount":2,"slowChargingPileCount":12,"address":"湖南省长沙市天心区湘府路298号"},{"id":3835,"name":"长沙友谊宾馆黄兴中路店充电站","longitude":"112.982285","latitude":"28.199783","img":"/styles/pcmap/img/c/trd.png","fastChargingPileCount":1,"slowChargingPileCount":2,"address":"湖南省长沙市天心区黄兴中路55号"},{"id":3838,"name":"长沙华江乐天花亭充电站","longitude":"112.982105","latitude":"28.286283","img":"/styles/pcmap/img/c/trd.png","fastChargingPileCount":2,"slowChargingPileCount":18,"address":"湖南省长沙市开福区芙蓉路86号"},{"id":3853,"name":"长沙浏阳市政府充电站","longitude":"113.650459","latitude":"28.169129","img":"/styles/pcmap/img/c/trd.png","fastChargingPileCount":2,"slowChargingPileCount":8,"address":"湖南省长沙市浏阳市白沙路1号行政中心"},{"id":3977,"name":"昭山示范区两型中心充电站","longitude":"113.025712","latitude":"27.947176","img":"/styles/pcmap/img/c/trd.png","fastChargingPileCount":3,"slowChargingPileCount":30,"address":"湖南省湘潭市岳塘区昭山示范区芙蓉大道两型产业发展中心"},{"id":3993,"name":"长沙暮云派出所公共充电站","longitude":"112.987445","latitude":"28.023661","img":"/styles/pcmap/img/c/trd.png","fastChargingPileCount":1,"slowChargingPileCount":4,"address":"湖南省长沙市长沙县伊莱克斯大道与G107国道交汇处"},{"id":4306,"name":"长沙捞建集团充电站","longitude":"113.020760","latitude":"28.240102","img":"/styles/pcmap/img/c/trd.png","fastChargingPileCount":0,"slowChargingPileCount":5,"address":"湖南省长沙市开福区三一大道349号"},{"id":4409,"name":"长沙维也纳酒店时代帝景店充电站","longitude":"112.940463","latitude":"28.223655","img":"/styles/pcmap/img/c/trd.png","fastChargingPileCount":2,"slowChargingPileCount":9,"address":"湖南省长沙市岳麓区桐梓坡西路399号"},{"id":4411,"name":"长沙海信广场充电站","longitude":"112.975687","latitude":"28.196356","img":"/styles/pcmap/img/c/trd.png","fastChargingPileCount":3,"slowChargingPileCount":3,"address":"湖南省长沙市天心区湘江中路36号"},{"id":4414,"name":"长沙高新区管委会充电站","longitude":"112.899437","latitude":"28.222686","img":"/styles/pcmap/img/c/trd.png","fastChargingPileCount":2,"slowChargingPileCount":8,"address":"湖南省长沙市岳麓区麓谷大道668号"},{"id":4428,"name":"浏阳高新技术开发区充电站","longitude":"113.307607","latitude":"28.220064","img":"/styles/pcmap/img/c/trd.png","fastChargingPileCount":2,"slowChargingPileCount":12,"address":"湖南省长沙市浏阳市永安镇永明路东北角"},{"id":4429,"name":"长沙浏阳凯旋豪庭充电站","longitude":"113.307683","latitude":"28.218913","img":"/styles/pcmap/img/c/trd.png","fastChargingPileCount":4,"slowChargingPileCount":24,"address":"湖南省长沙市浏阳市永安镇永阳路永明路西南角"},{"id":4471,"name":"湖南省委党校德政楼北充电站","longitude":"112.944787","latitude":"28.201804","img":"/styles/pcmap/img/c/trd.png","fastChargingPileCount":1,"slowChargingPileCount":2,"address":"湖南省长沙市岳麓区白云路386号"},{"id":4479,"name":"湖南省委党校本部充电站","longitude":"112.940681","latitude":"28.202089","img":"/styles/pcmap/img/c/trd.png","fastChargingPileCount":1,"slowChargingPileCount":3,"address":"湖南省长沙市岳麓区白云路386号"},{"id":5682,"name":"长沙鑫达贵都大酒店充电站","longitude":"113.091726","latitude":"28.210830","img":"/styles/pcmap/img/c/trd.png","fastChargingPileCount":2,"slowChargingPileCount":16,"address":"湖南省长沙市芙蓉区远大二路892号"},{"id":5692,"name":"湘潭北汽新能源充电站","longitude":"112.900982","latitude":"27.893551","img":"/styles/pcmap/img/c/trd.png","fastChargingPileCount":1,"slowChargingPileCount":6,"address":"湖南省湘潭市雨湖区北二环路PICC家园"},{"id":5881,"name":"长沙人民检察院充电站","longitude":"112.951356","latitude":"28.236690","img":"/styles/pcmap/img/c/trd.png","fastChargingPileCount":0,"slowChargingPileCount":10,"address":"湖南省长沙市岳麓区杜鹃路1号"},{"id":5882,"name":"长沙天心区法院充电站","longitude":"112.995344","latitude":"28.118250","img":"/styles/pcmap/img/c/trd.png","fastChargingPileCount":1,"slowChargingPileCount":2,"address":"湖南省长沙市天心区湘府中路298号"},{"id":5883,"name":"长沙绕城高速西南段充电站","longitude":"112.933665","latitude":"28.114384","img":"/styles/pcmap/img/c/trd.png","fastChargingPileCount":1,"slowChargingPileCount":2,"address":"湖南省长沙市望城区G0401长沙绕城高速083县道入口附近"},{"id":5891,"name":"长沙雅尊戴斯二期充电站","longitude":"113.004716","latitude":"28.203661","img":"/styles/pcmap/img/c/trd.png","fastChargingPileCount":0,"slowChargingPileCount":2,"address":"湖南省长沙市芙蓉区八一路298号"},{"id":6048,"name":"芦淞大桥普天充电站","longitude":"113.137167","latitude":"27.856204","img":"/styles/pcmap/img/c/ptxny.png","fastChargingPileCount":30,"slowChargingPileCount":0,"address":"湖南省株洲市天元区芦淞大桥下"},{"id":6074,"name":"湖南煤矿安全监察局充电站","longitude":"112.991093","latitude":"28.033507","img":"/styles/pcmap/img/c/trd.png","fastChargingPileCount":1,"slowChargingPileCount":14,"address":"湖南省长沙市长沙县天心区暮云镇"},{"id":6214,"name":"湖南大剧院充电站","longitude":"113.004165","latitude":"28.195716","img":"/styles/pcmap/img/c/trd.png","fastChargingPileCount":3,"slowChargingPileCount":12,"address":"湖南省长沙市芙蓉区韶山北路139号"},{"id":6369,"name":"湖南省煤田地质局充电站","longitude":"113.036530","latitude":"28.128210","img":"/styles/pcmap/img/c/trd.png","fastChargingPileCount":2,"slowChargingPileCount":3,"address":"湖南省长沙市雨花区万家丽中路三段76号"},{"id":6491,"name":"长沙兴威华天大酒店充电站","longitude":"112.983450","latitude":"28.147550","img":"/styles/pcmap/img/c/trd.png","fastChargingPileCount":6,"slowChargingPileCount":24,"address":"湖南省长沙市天心区南二环二段306号"},{"id":6492,"name":"长沙兴威帕克水岸充电站","longitude":"112.982545","latitude":"28.149062","img":"/styles/pcmap/img/c/trd.png","fastChargingPileCount":1,"slowChargingPileCount":16,"address":"湖南省长沙市天心区书院南路70号"},{"id":6493,"name":"长沙雨花区地方税务局充电站","longitude":"113.012895","latitude":"28.118770","img":"/styles/pcmap/img/c/trd.png","fastChargingPileCount":0,"slowChargingPileCount":10,"address":"湖南省长沙市雨花区湘府中路108号"},{"id":6663,"name":"长沙金房国际酒店充电站","longitude":"112.995930","latitude":"28.105264","img":"/styles/pcmap/img/c/trd.png","fastChargingPileCount":1,"slowChargingPileCount":2,"address":"湖南省长沙市天心区芙蓉南路二段103号"},{"id":6664,"name":"岳阳市启晨奇瑞充电站","longitude":"113.148329","latitude":"29.381814","img":"/styles/pcmap/img/c/trd.png","fastChargingPileCount":1,"slowChargingPileCount":0,"address":"湖南省岳阳市岳阳楼区冷水铺路"},{"id":6787,"name":"长沙中建梅溪湖中心充电站","longitude":"112.905214","latitude":"28.198919","img":"/styles/pcmap/img/c/trd.png","fastChargingPileCount":4,"slowChargingPileCount":16,"address":"湖南省长沙市岳麓区环湖路中建・梅澜坊商业街"},{"id":6788,"name":"长沙蓝天建材城充电站","longitude":"113.016908","latitude":"28.087191","img":"/styles/pcmap/img/c/trd.png","fastChargingPileCount":2,"slowChargingPileCount":2,"address":"湖南省长沙市雨花区汇金路278号"},{"id":6789,"name":"岳阳祺峰新能源充电站","longitude":"113.148329","latitude":"29.381814","img":"/styles/pcmap/img/c/trd.png","fastChargingPileCount":1,"slowChargingPileCount":6,"address":"湖南省岳阳市岳阳楼区冷水铺路8号"},{"id":6953,"name":"湖南省委招待所充电站","longitude":"113.003842","latitude":"28.205890","img":"/styles/pcmap/img/c/trd.png","fastChargingPileCount":2,"slowChargingPileCount":2,"address":"湖南省长沙市芙蓉区韶山北路20号"},{"id":6954,"name":"湖南科创信息充电站","longitude":"112.879482","latitude":"28.232047","img":"/styles/pcmap/img/c/trd.png","fastChargingPileCount":2,"slowChargingPileCount":2,"address":"湖南省长沙市岳麓区青山路678号"},{"id":6955,"name":"长沙三只熊冰雪王国充电站","longitude":"113.012746","latitude":"28.047783","img":"/styles/pcmap/img/c/trd.png","fastChargingPileCount":2,"slowChargingPileCount":12,"address":"湖南省长沙市长沙县芙蓉南路(生态动物园旁)西湖大道"},{"id":6956,"name":"湖南金百龙汽车销售充电站","longitude":"113.071657","latitude":"28.240269","img":"/styles/pcmap/img/c/trd.png","fastChargingPileCount":1,"slowChargingPileCount":0,"address":"湖南省长沙市长沙县中南汽车世界E04栋"},{"id":6957,"name":"湘潭华都国际大酒店充电站","longitude":"112.931208","latitude":"27.834845","img":"/styles/pcmap/img/c/trd.png","fastChargingPileCount":2,"slowChargingPileCount":12,"address":"湖南省湘潭市岳塘区建设南路328号"},{"id":7119,"name":"长沙汇一城充电站","longitude":"113.093240","latitude":"28.213034","img":"/styles/pcmap/img/c/trd.png","fastChargingPileCount":0,"slowChargingPileCount":9,"address":"湖南省长沙市芙蓉区红旗路与远大二路交汇处东北角（农科院北门站附近）"},{"id":7120,"name":"长沙县梅花附件厂充电站","longitude":"113.321806","latitude":"28.186372","img":"/styles/pcmap/img/c/trd.png","fastChargingPileCount":1,"slowChargingPileCount":2,"address":"湖南省长沙市长沙县江背镇同心工业园"},{"id":7121,"name":"湖南交通职业学院充电站","longitude":"113.191779","latitude":"28.146891","img":"/styles/pcmap/img/c/trd.png","fastChargingPileCount":2,"slowChargingPileCount":7,"address":"湖南省长沙市长沙县干杉镇"},{"id":7122,"name":"湘潭宇翔汽车充电站","longitude":"112.992995","latitude":"27.841247","img":"/styles/pcmap/img/c/trd.png","fastChargingPileCount":1,"slowChargingPileCount":6,"address":"湖南省湘潭市岳塘区双马工业园迅达大道188号"},{"id":7318,"name":"长沙暮云西湖警务室充电站","longitude":"113.007616","latitude":"28.047520","img":"/styles/pcmap/img/c/trd.png","fastChargingPileCount":1,"slowChargingPileCount":4,"address":"湖南省长沙市长沙县暮云镇西湖路"},{"id":7319,"name":"长沙暮云高云村委会充电站","longitude":"113.016414","latitude":"28.065803","img":"/styles/pcmap/img/c/trd.png","fastChargingPileCount":1,"slowChargingPileCount":4,"address":"湖南省长沙市长沙县暮云镇"},{"id":7721,"name":"湖南隆华大酒店充电站","longitude":"113.087169","latitude":"28.200949","img":"/styles/pcmap/img/c/trd.png","fastChargingPileCount":4,"slowChargingPileCount":12,"address":"湖南省长沙市芙蓉区隆平科技园红旗路199号"},{"id":7722,"name":"长沙双水湾嘉园充电站","longitude":"113.054490","latitude":"28.193256","img":"/styles/pcmap/img/c/trd.png","fastChargingPileCount":0,"slowChargingPileCount":10,"address":"湖南省长沙市雨花区沙湾路1088号"},{"id":7723,"name":"长沙红星国际会展中心充电站","longitude":"113.020324","latitude":"28.113623","img":"/styles/pcmap/img/c/trd.png","fastChargingPileCount":4,"slowChargingPileCount":12,"address":"湖南省长沙市雨花区韶山南路"},{"id":7724,"name":"长沙红星国际星城充电站","longitude":"113.022309","latitude":"28.115434","img":"/styles/pcmap/img/c/trd.png","fastChargingPileCount":0,"slowChargingPileCount":8,"address":"湖南省长沙市雨花区湘府东路517号"},{"id":7725,"name":"长沙长丰星城充电站","longitude":"113.072916","latitude":"28.261774","img":"/styles/pcmap/img/c/trd.png","fastChargingPileCount":1,"slowChargingPileCount":2,"address":"湖南省长沙市长沙县特立西路"},{"id":7726,"name":"常德柳叶湖集散中心充电站","longitude":"111.737843","latitude":"29.062705","img":"/styles/pcmap/img/c/trd.png","fastChargingPileCount":6,"slowChargingPileCount":2,"address":"湖南省常德市武陵区柳叶大道柳叶湖"},{"id":7727,"name":"益阳奥林匹克公园充电站","longitude":"112.363260","latitude":"28.556513","img":"/styles/pcmap/img/c/trd.png","fastChargingPileCount":1,"slowChargingPileCount":6,"address":"湖南省益阳市赫山区玉兰路"},{"id":7728,"name":"益阳羽星酒店充电站","longitude":"112.360548","latitude":"28.556729","img":"/styles/pcmap/img/c/trd.png","fastChargingPileCount":2,"slowChargingPileCount":10,"address":"湖南省益阳市赫山区康复南路30号"},{"id":7729,"name":"南县国土局充电站","longitude":"112.416024","latitude":"29.366807","img":"/styles/pcmap/img/c/trd.png","fastChargingPileCount":10,"slowChargingPileCount":12,"address":"湖南省益阳市南县兴盛大道"},{"id":7730,"name":"南县县政府充电站","longitude":"112.402900","latitude":"29.367394","img":"/styles/pcmap/img/c/trd.png","fastChargingPileCount":2,"slowChargingPileCount":8,"address":"湖南省益阳市南县兴盛大道"},{"id":7731,"name":"南县兴盛广场充电站","longitude":"112.434469","latitude":"29.372499","img":"/styles/pcmap/img/c/trd.png","fastChargingPileCount":0,"slowChargingPileCount":12,"address":"湖南省益阳市南县兴盛路"},{"id":7732,"name":"沅江市妇幼保健院充电站","longitude":"112.368062","latitude":"28.843620","img":"/styles/pcmap/img/c/trd.png","fastChargingPileCount":0,"slowChargingPileCount":20,"address":"湖南省益阳市沅江市琼湖中路"},{"id":7733,"name":"沅江市国土资源局充电站","longitude":"112.355764","latitude":"28.846127","img":"/styles/pcmap/img/c/trd.png","fastChargingPileCount":1,"slowChargingPileCount":4,"address":"湖南省益阳市沅江市白沙大道"},{"id":7734,"name":"沅江市琼湖街道办充电站","longitude":"112.377772","latitude":"28.861009","img":"/styles/pcmap/img/c/trd.png","fastChargingPileCount":0,"slowChargingPileCount":2,"address":"湖南省益阳市沅江市沅纸路"},{"id":7860,"name":"湖南中小企业基地充电站","longitude":"113.008176","latitude":"28.077024","img":"/styles/pcmap/img/c/trd.png","fastChargingPileCount":4,"slowChargingPileCount":2,"address":"湖南省长沙市天心区环保西路199号"},{"id":7861,"name":"长沙南托街道办充电站","longitude":"112.987620","latitude":"28.026735","img":"/styles/pcmap/img/c/trd.png","fastChargingPileCount":2,"slowChargingPileCount":5,"address":"湖南省长沙市长沙县商贸城旁"},{"id":8009,"name":"湖畔小区（交流）-1","longitude":"112.969282","latitude":"28.343872","img":"/styles/pcmap/img/c/xxcd.png","fastChargingPileCount":0,"slowChargingPileCount":4,"address":"长沙市开福区青竹湖镇青竹湖畔路湖畔小区"},{"id":8010,"name":"湖畔小区（交流）-2","longitude":"112.967485","latitude":"28.343415","img":"/styles/pcmap/img/c/xxcd.png","fastChargingPileCount":0,"slowChargingPileCount":4,"address":"长沙市开福区青竹湖镇青竹湖畔路湖畔小区"},{"id":8011,"name":"湖畔小区（低压40kw直流）-2","longitude":"112.967456","latitude":"28.343405","img":"/styles/pcmap/img/c/xxcd.png","fastChargingPileCount":1,"slowChargingPileCount":0,"address":"长沙市开福区青竹湖镇青竹湖畔路湖畔小区"},{"id":8012,"name":"湖畔小区（低压40kw直流）-1","longitude":"112.969094","latitude":"28.343859","img":"/styles/pcmap/img/c/xxcd.png","fastChargingPileCount":1,"slowChargingPileCount":0,"address":"长沙市开福区青竹湖镇青竹湖畔路湖畔小区"},{"id":8131,"name":"湖南省老干部休养所充电站","longitude":"113.037183","latitude":"28.211981","img":"/styles/pcmap/img/c/trd.png","fastChargingPileCount":1,"slowChargingPileCount":2,"address":"湖南省长沙市芙蓉区万家丽路三段50号"},{"id":8457,"name":"水映加州（低压40kw直流）-1","longitude":"112.975209","latitude":"28.340644","img":"/styles/pcmap/img/c/xxcd.png","fastChargingPileCount":1,"slowChargingPileCount":0,"address":"长沙市开福区青竹湖镇太阳路688号"},{"id":8458,"name":"水映加州（低压40kw直流）-2","longitude":"112.975209","latitude":"28.340644","img":"/styles/pcmap/img/c/xxcd.png","fastChargingPileCount":1,"slowChargingPileCount":0,"address":"长沙市开福区青竹湖镇太阳路688号"},{"id":8459,"name":"水映加州（低压7kw交流）-2","longitude":"112.975209","latitude":"28.340644","img":"/styles/pcmap/img/c/xxcd.png","fastChargingPileCount":0,"slowChargingPileCount":4,"address":"长沙市开福区青竹湖镇太阳路688号"},{"id":8460,"name":"水映加州（低压7kw交流）-1","longitude":"112.975209","latitude":"28.340644","img":"/styles/pcmap/img/c/xxcd.png","fastChargingPileCount":0,"slowChargingPileCount":4,"address":"长沙市开福区青竹湖镇太阳路688号"},{"id":8514,"name":"湘潭市环保局充电站","longitude":"112.923285","latitude":"27.843903","img":"/styles/pcmap/img/c/trd.png","fastChargingPileCount":2,"slowChargingPileCount":12,"address":"湖南省湘潭市岳塘区建设中路10号"},{"id":8515,"name":"湘潭人社局充电站","longitude":"112.940276","latitude":"27.832797","img":"/styles/pcmap/img/c/trd.png","fastChargingPileCount":2,"slowChargingPileCount":9,"address":"湖南省湘潭市岳塘区芙蓉中路137号"},{"id":8556,"name":"长沙职教管理中心充电站","longitude":"113.042943","latitude":"28.069353","img":"/styles/pcmap/img/c/trd.png","fastChargingPileCount":1,"slowChargingPileCount":2,"address":"湖南省长沙市雨花区圭白路16号"},{"id":8557,"name":"长沙有色地勘大厦充电站","longitude":"113.119964","latitude":"28.206586","img":"/styles/pcmap/img/c/trd.png","fastChargingPileCount":1,"slowChargingPileCount":10,"address":"湖南省长沙市长沙县东六路"},{"id":8558,"name":"湖南亚工工程机械充电站","longitude":"113.153535","latitude":"28.202602","img":"/styles/pcmap/img/c/trd.png","fastChargingPileCount":1,"slowChargingPileCount":2,"address":"湖南省长沙市长沙县东十一路与中轴东路交汇处"},{"id":8596,"name":"长沙长永佳苑充电站","longitude":"113.071751","latitude":"28.238318","img":"/styles/pcmap/img/c/trd.png","fastChargingPileCount":2,"slowChargingPileCount":8,"address":"湖南省长沙市长沙县中南汽车世界博展路12号"},{"id":9084,"name":"长沙麓谷信息港充电站","longitude":"112.897816","latitude":"28.220515","img":"/styles/pcmap/img/c/trd.png","fastChargingPileCount":1,"slowChargingPileCount":10,"address":"湖南省长沙市岳麓区麓谷大道658号"},{"id":9292,"name":"湘潭三鑫汽车文化广场充电站","longitude":"112.960312","latitude":"27.853562","img":"/styles/pcmap/img/c/trd.png","fastChargingPileCount":2,"slowChargingPileCount":8,"address":"湖南省湘潭市岳塘区向东大道168号"},{"id":9431,"name":"左中右（交流）","longitude":"113.046866","latitude":"28.235361","img":"/styles/pcmap/img/c/xxcd.png","fastChargingPileCount":0,"slowChargingPileCount":4,"address":"万家丽北路月湖大市场旁捷和4S二手车左中右4S店前"},{"id":9712,"name":"长沙钱隆樽品充电站","longitude":"112.991896","latitude":"28.150624","img":"/styles/pcmap/img/c/trd.png","fastChargingPileCount":0,"slowChargingPileCount":5,"address":"湖南省长沙市天心区芙蓉中路"},{"id":9798,"name":"湖南湘鹤集团","longitude":"109.94775057359782","latitude":"27.410973972709545","img":"/styles/pcmap/img/c/ccz.png","fastChargingPileCount":0,"slowChargingPileCount":3,"address":"湖南省怀化市鹤城区湖南省怀化市财富路1号"},{"id":9799,"name":"长沙北辰三角洲","longitude":"112.98467065781884","latitude":"28.23598364787385","img":"/styles/pcmap/img/c/ccz.png","fastChargingPileCount":0,"slowChargingPileCount":3,"address":"湖南省长沙市开福区湖南省长沙市开福区北辰三角洲凤凰天阶苑（B1E1地块）负一层双进口左侧"},{"id":10064,"name":"长沙花溪欣苑充电站","longitude":"112.913277","latitude":"28.057121","img":"/styles/pcmap/img/c/trd.png","fastChargingPileCount":3,"slowChargingPileCount":12,"address":"湖南省长沙市望城区坪塘大道和花溪路交汇处"},{"id":10065,"name":"长沙三一街区充电站","longitude":"113.074139","latitude":"28.261713","img":"/styles/pcmap/img/c/trd.png","fastChargingPileCount":0,"slowChargingPileCount":18,"address":"湖南省长沙市长沙县特立西路18号"},{"id":10101,"name":"长沙春和景明酒店充电站","longitude":"113.041767","latitude":"28.209129","img":"/styles/pcmap/img/c/trd.png","fastChargingPileCount":4,"slowChargingPileCount":12,"address":"湖南省长沙市芙蓉区嘉雨路189号"},{"id":10102,"name":"长沙昌和商业中心充电站","longitude":"113.118003","latitude":"28.229724","img":"/styles/pcmap/img/c/trd.png","fastChargingPileCount":4,"slowChargingPileCount":12,"address":"湖南省长沙市长沙县经济开发区漓湘东路18号"},{"id":10103,"name":"湘潭三马名车大厦充电站","longitude":"112.941423","latitude":"27.943723","img":"/styles/pcmap/img/c/trd.png","fastChargingPileCount":0,"slowChargingPileCount":6,"address":"湖南省湘潭市湘潭县湘望路"},{"id":10170,"name":"长沙宇轩立体车库充电站","longitude":"112.979646","latitude":"28.189551","img":"/styles/pcmap/img/c/trd.png","fastChargingPileCount":0,"slowChargingPileCount":6,"address":"湖南省长沙市天心区西湖路与书院路交汇处"},{"id":10171,"name":"长沙慢步江湾充电站","longitude":"112.970374","latitude":"28.154148","img":"/styles/pcmap/img/c/trd.png","fastChargingPileCount":4,"slowChargingPileCount":18,"address":"湖南省长沙市天心区殷家冲街93号"},{"id":10172,"name":"湖南省冶金材料研究院充电站","longitude":"113.134185","latitude":"28.201645","img":"/styles/pcmap/img/c/trd.png","fastChargingPileCount":4,"slowChargingPileCount":11,"address":"湖南省长沙市长沙县经开区榔梨街道佳园路9号"},{"id":10351,"name":"长沙运成大厦充电站","longitude":"112.995191","latitude":"28.129952","img":"/styles/pcmap/img/c/trd.png","fastChargingPileCount":2,"slowChargingPileCount":19,"address":"湖南省长沙市天心区友谊路411号"},{"id":10352,"name":"湖南省林科院充电站","longitude":"113.009483","latitude":"28.136859","img":"/styles/pcmap/img/c/trd.png","fastChargingPileCount":2,"slowChargingPileCount":10,"address":"湖南省长沙市天心区韶山南路658号"},{"id":10417,"name":"长沙美利新世界充电站","longitude":"113.027791","latitude":"28.257461","img":"/styles/pcmap/img/c/trd.png","fastChargingPileCount":0,"slowChargingPileCount":2,"address":"湖南省长沙市开福区福元中路66号"},{"id":10418,"name":"长沙清溪川九号小区充电站","longitude":"113.038797","latitude":"28.137085","img":"/styles/pcmap/img/c/trd.png","fastChargingPileCount":0,"slowChargingPileCount":2,"address":"湖南省长沙市雨花区木莲路"},{"id":10419,"name":"湖南食品药品学院充电站","longitude":"112.896474","latitude":"28.129662","img":"/styles/pcmap/img/c/trd.png","fastChargingPileCount":1,"slowChargingPileCount":6,"address":"湖南省长沙市望城区长沙市望城区学士路旁"},{"id":10420,"name":"湖南食品药品学院大巴充电站","longitude":"112.896474","latitude":"28.129662","img":"/styles/pcmap/img/c/trd.png","fastChargingPileCount":2,"slowChargingPileCount":0,"address":"湖南省长沙市望城区学士路旁"},{"id":10421,"name":"长沙丽发新城一期充电站","longitude":"113.027629","latitude":"28.067616","img":"/styles/pcmap/img/c/trd.png","fastChargingPileCount":2,"slowChargingPileCount":35,"address":"湖南省长沙市长沙县暮云镇万家丽路丽发新城一期（长沙理工大学云塘校区对面）"},{"id":11039,"name":"长沙公卫大楼充电站","longitude":"113.017783","latitude":"28.103022","img":"/styles/pcmap/img/c/trd.png","fastChargingPileCount":0,"slowChargingPileCount":16,"address":"湖南省长沙市雨花区洞井街道"},{"id":11040,"name":"湘潭昭祥公寓充电站","longitude":"113.022334","latitude":"27.914091","img":"/styles/pcmap/img/c/trd.png","fastChargingPileCount":0,"slowChargingPileCount":12,"address":"湖南省湘潭市岳塘区芙蓉大道昭山段"},{"id":11275,"name":"湖南省科技厅充电站","longitude":"112.992822","latitude":"28.113486","img":"/styles/pcmap/img/c/trd.png","fastChargingPileCount":2,"slowChargingPileCount":2,"address":"湖南省长沙市天心区岳麓大道233号"},{"id":11294,"name":"湖南省科技厅充电站","longitude":"112.949538","latitude":"28.230861","img":"/styles/pcmap/img/c/trd.png","fastChargingPileCount":2,"slowChargingPileCount":8,"address":"湖南省长沙市岳麓区岳麓大道233号"},{"id":11916,"name":"普天株洲公司楼前","longitude":"113.086154 ","latitude":"27.820685 ","img":"/styles/pcmap/img/c/ptxny.png","fastChargingPileCount":0,"slowChargingPileCount":3,"address":"湖南省株洲市天元区汽配园D区1栋"},{"id":11917,"name":"高家坳立交站","longitude":"113.188711 ","latitude":"27.821452 ","img":"/styles/pcmap/img/c/ptxny.png","fastChargingPileCount":6,"slowChargingPileCount":0,"address":"湖南省株洲市芦淞区高家坳立交桥下"},{"id":11918,"name":"清石基地站","longitude":"113.100449 ","latitude":"27.899466 ","img":"/styles/pcmap/img/c/ptxny.png","fastChargingPileCount":10,"slowChargingPileCount":0,"address":"湖南省株洲市石峰区清石公交基地"},{"id":11919,"name":"芦淞大桥站","longitude":"113.130912 ","latitude":"27.847580 ","img":"/styles/pcmap/img/c/ptxny.png","fastChargingPileCount":30,"slowChargingPileCount":0,"address":"湖南省株洲市天元区芦淞桥下（西头）"},{"id":11920,"name":"体育中心站","longitude":"113.120537 ","latitude":"27.845886 ","img":"/styles/pcmap/img/c/ptxny.png","fastChargingPileCount":30,"slowChargingPileCount":0,"address":"湖南省株洲市天元区体育中心"},{"id":11921,"name":"田心立交站","longitude":"113.146899 ","latitude":"27.887950 ","img":"/styles/pcmap/img/c/ptxny.png","fastChargingPileCount":4,"slowChargingPileCount":0,"address":"湖南省株洲市石峰区田心立交桥下"},{"id":12157,"name":"长沙盛大金禧国际金融中心充电站","longitude":"112.993142","latitude":"28.221074","img":"/styles/pcmap/img/c/trd.png","fastChargingPileCount":2,"slowChargingPileCount":2,"address":"湖南省长沙市开福区芙蓉中路一段288号"},{"id":12293,"name":"长沙岳麓街道五星村充电站","longitude":"112.941178","latitude":"28.143748","img":"/styles/pcmap/img/c/trd.png","fastChargingPileCount":1,"slowChargingPileCount":10,"address":"湖南省长沙市岳麓区岳麓街道联丰路"},{"id":12351,"name":"长沙悦方充电站","longitude":"112.982252","latitude":"28.195970","img":"/styles/pcmap/img/c/trd.png","fastChargingPileCount":6,"slowChargingPileCount":6,"address":"湖南省长沙市天心区坡子街216号"},{"id":12352,"name":"湘潭金都商务大厦充电站","longitude":"112.889765","latitude":"27.863465","img":"/styles/pcmap/img/c/trd.png","fastChargingPileCount":2,"slowChargingPileCount":9,"address":"湖南省湘潭市雨湖区韶山西路与宝庆路交界处"},{"id":12549,"name":"长沙绕城高速西南段充电站","longitude":"112.863041","latitude":"28.202867","img":"/styles/pcmap/img/c/trd.png","fastChargingPileCount":1,"slowChargingPileCount":6,"address":"湖南省长沙市岳麓区G0401长沙绕城高速083县道入口附近"},{"id":12564,"name":"长沙雄天路充电站","longitude":"113.073194","latitude":"28.221597","img":"/styles/pcmap/img/c/trd.png","fastChargingPileCount":0,"slowChargingPileCount":3,"address":"湖南省长沙市芙蓉区雄天路1号"},{"id":12682,"name":"长沙新兴科技产业园充电站","longitude":"112.996632","latitude":"28.023752","img":"/styles/pcmap/img/c/trd.png","fastChargingPileCount":4,"slowChargingPileCount":17,"address":"湖南省长沙市长沙县伊莱克斯大道"},{"id":12726,"name":"长沙暮云经开区管委会充电站","longitude":"112.990791","latitude":"28.032209","img":"/styles/pcmap/img/c/trd.png","fastChargingPileCount":0,"slowChargingPileCount":12,"address":"湖南省长沙市长沙县暮云镇"},{"id":12727,"name":"浏阳市大润发充电站","longitude":"113.633994","latitude":"28.162753","img":"/styles/pcmap/img/c/trd.png","fastChargingPileCount":4,"slowChargingPileCount":2,"address":"湖南省长沙市浏阳市民俗文化街171号"},{"id":12728,"name":"浏阳市国土资源局充电站","longitude":"113.652753","latitude":"28.165378","img":"/styles/pcmap/img/c/trd.png","fastChargingPileCount":4,"slowChargingPileCount":10,"address":"湖南省长沙市浏阳市白沙东路27号"},{"id":12729,"name":"浏阳市林业局充电站","longitude":"113.653712","latitude":"28.168031","img":"/styles/pcmap/img/c/trd.png","fastChargingPileCount":4,"slowChargingPileCount":12,"address":"湖南省长沙市浏阳市行政中心"},{"id":12756,"name":"左中右（交流）_1","longitude":"113.046866","latitude":"28.235361","img":"/styles/pcmap/img/c/xxcd1.png","fastChargingPileCount":0,"slowChargingPileCount":0,"address":"万家丽北路月湖大市场旁捷和4S二手车左中右4S店前"},{"id":12758,"name":"湖南省民政厅7kw（交流）","longitude":"113.00021","latitude":"28.224573","img":"/styles/pcmap/img/c/xxcd1.png","fastChargingPileCount":0,"slowChargingPileCount":0,"address":"湖南民政厅"},{"id":12906,"name":"常德武陵天济喜来登酒店","longitude":"111.68749597067881","latitude":"29.05884118597734","img":"/styles/pcmap/img/c/ccz.png","fastChargingPileCount":0,"slowChargingPileCount":3,"address":"湖南省常德市武陵区湖南省常德市武陵区皂果路899号常德武陵天济喜来登酒店"},{"id":12917,"name":"吉首边城国际大酒店","longitude":"109.74629774781667","latitude":"28.317342706117806","img":"/styles/pcmap/img/c/ccz.png","fastChargingPileCount":0,"slowChargingPileCount":2,"address":"湖南省湘西土家族苗族自治州吉首市湖南省湘西土家族苗族自治州吉首市人民北路99号边城国际大酒店"},{"id":12997,"name":"怀化城市花园酒店","longitude":"109.9806666051311","latitude":"27.5561761682479","img":"/styles/pcmap/img/c/ccz.png","fastChargingPileCount":0,"slowChargingPileCount":2,"address":"湖南省怀化市鹤城区湖南省怀化市鹤城区富程路188号城市花园酒店"},{"id":13001,"name":"香山湖健康城","longitude":"112.94498557411583","latitude":"28.58914924994985","img":"/styles/pcmap/img/c/ccz.png","fastChargingPileCount":0,"slowChargingPileCount":4,"address":"湖南省岳阳市岳阳楼区湖南省岳阳市湘阴县金龙镇香山村与文星村交汇处芙蓉北路湘阴段"},{"id":13004,"name":"太阳星城超级充电站","longitude":"112.9825284623102","latitude":"28.354248608020843","img":"/styles/pcmap/img/c/ccz.png","fastChargingPileCount":0,"slowChargingPileCount":6,"address":"湖南省长沙市芙蓉区湖南省长沙市开福区青竹湖大道699号"},{"id":13007,"name":"温莎KTV解放东路店","longitude":"113.0052090145418","latitude":"28.196306189140152","img":"/styles/pcmap/img/c/ccz.png","fastChargingPileCount":0,"slowChargingPileCount":2,"address":"湖南省长沙市芙蓉区湖南省长沙市芙蓉区解放东路281号温莎KTV解放东路店"},{"id":13010,"name":"豪布斯卡酒店超级充电站","longitude":"113.00245202459989","latitude":"28.11867331536432","img":"/styles/pcmap/img/c/ccz.png","fastChargingPileCount":0,"slowChargingPileCount":2,"address":"湖南省长沙市芙蓉区湖南省长沙市天心区湘府路198号，豪布斯卡酒店"},{"id":13011,"name":"长沙栖涧里创想酒店","longitude":"113.00898235021492","latitude":"28.12070081214224","img":"/styles/pcmap/img/c/ccz.png","fastChargingPileCount":0,"slowChargingPileCount":1,"address":"湖南省长沙市芙蓉区湖南省长沙市雨花区迎新路与万芙路交汇处青园小学旁长沙栖涧里创想酒店"},{"id":13026,"name":"体育中心站","longitude":"113.12036732720787","latitude":"27.84642267258658","img":"/styles/pcmap/img/c/ccz.png","fastChargingPileCount":0,"slowChargingPileCount":30,"address":"湖南省株洲市天元区湖南省株洲市天元区体育中心"},{"id":13027,"name":"普天株洲公司楼前","longitude":"113.08595170609135","latitude":"27.820499572318433","img":"/styles/pcmap/img/c/ccz.png","fastChargingPileCount":0,"slowChargingPileCount":3,"address":"湖南省株洲市天元区湖南省株洲市天元区汽配园D区1栋"},{"id":13028,"name":"株洲华润万家购物中心","longitude":"113.17129643940989","latitude":"27.850561553760645","img":"/styles/pcmap/img/c/ccz.png","fastChargingPileCount":0,"slowChargingPileCount":2,"address":"湖南省郴州市北湖区湖南省株洲市荷塘区新华西路559号株洲华润万家购物中心"},{"id":13029,"name":"芦淞大桥站","longitude":"113.16547286558581","latitude":"27.832652937481217","img":"/styles/pcmap/img/c/ccz.png","fastChargingPileCount":0,"slowChargingPileCount":30,"address":"湖南省株洲市天元区湖南省株洲市天元区芦淞桥下（西头）"},{"id":13034,"name":"醴陵华生建筑设备租赁部","longitude":"113.52534784301159","latitude":"27.676975529390102","img":"/styles/pcmap/img/c/ccz.png","fastChargingPileCount":0,"slowChargingPileCount":2,"address":"湖南省郴州市北湖区湖南省株洲市醴陵市丁家坊社区边"},{"id":13039,"name":"衡阳林隐假日酒店","longitude":"112.56046077695831","latitude":"26.89845203438787","img":"/styles/pcmap/img/c/ccz.png","fastChargingPileCount":0,"slowChargingPileCount":1,"address":"湖南省长沙市芙蓉区湖南省衡阳市蒸湘区解放大道43号衡阳林隐假日酒店"},{"id":13101,"name":"资兴宾馆","longitude":"113.23699819194347","latitude":"25.982169522826606","img":"/styles/pcmap/img/c/ccz.png","fastChargingPileCount":0,"slowChargingPileCount":2,"address":"湖南省郴州市北湖区湖南省郴州市资兴市晋宁路489号资兴宾馆"},{"id":13114,"name":"郴州雄森国际假日酒店","longitude":"113.01784098114312","latitude":"25.77647178296856","img":"/styles/pcmap/img/c/ccz.png","fastChargingPileCount":0,"slowChargingPileCount":3,"address":"湖南省株洲市荷塘区湖南省郴州市北湖区日月路一号雄森国际假日酒店"},{"id":13120,"name":"郴州市宜章电子商务产业园超级充电站","longitude":"112.98395492699078","latitude":"25.40706526045406","img":"/styles/pcmap/img/c/ccz.png","fastChargingPileCount":0,"slowChargingPileCount":4,"address":"湖南省株洲市荷塘区湖南省郴州市宜章县电子商务产业园"},{"id":13513,"name":"长沙当代滨江MOMA充电站","longitude":"112.961340","latitude":"28.242846","img":"/styles/pcmap/img/c/trd.png","fastChargingPileCount":4,"slowChargingPileCount":12,"address":"湖南省长沙市岳麓区含光路241号"},{"id":13522,"name":"株洲贝宁新能源电动汽车销售服务有限公司","longitude":"113.105316","latitude":"27.821142","img":"/styles/pcmap/img/c/ccz.png","fastChargingPileCount":10,"slowChargingPileCount":2,"address":"湖南省株洲市天元区校园南环路"},{"id":13800,"name":"京港澳高速巴陵服务区充电站（北京方向）","longitude":"113.27697","latitude":"29.0749928","img":"/styles/pcmap/img/c/gjdw.png","fastChargingPileCount":4,"slowChargingPileCount":0,"address":"京港澳高速巴陵服务区（北京方向）"},{"id":13824,"name":"京港澳高速临湘服务区充电站（北京方向）","longitude":"113.51868","latitude":"29.4787310","img":"/styles/pcmap/img/c/gjdw.png","fastChargingPileCount":4,"slowChargingPileCount":0,"address":"京港澳高速临湘服务区（北京方向）"},{"id":13843,"name":"京港澳高速雁城服务区充电站（北京方向）","longitude":"112.84451","latitude":"26.9595073","img":"/styles/pcmap/img/c/gjdw.png","fastChargingPileCount":2,"slowChargingPileCount":0,"address":"京港澳高速雁城服务区（北京方向）"},{"id":13852,"name":"京港澳高速平江服务区充电站（北京方向）","longitude":"113.27332","latitude":"28.6497824","img":"/styles/pcmap/img/c/gjdw.png","fastChargingPileCount":3,"slowChargingPileCount":0,"address":"京港澳高速平江服务区（北京方向）"},{"id":13912,"name":"京港澳高速耒阳服务区充电站（北京方向）","longitude":"112.91319","latitude":"26.4944521","img":"/styles/pcmap/img/c/gjdw.png","fastChargingPileCount":4,"slowChargingPileCount":0,"address":"京港澳高速耒阳服务区（北京方向）"},{"id":13913,"name":"京港澳高速朱亭服务区充电站（北京方向）","longitude":"113.04107","latitude":"27.4068238","img":"/styles/pcmap/img/c/gjdw.png","fastChargingPileCount":4,"slowChargingPileCount":0,"address":"京港澳高速朱亭服务区（北京方向）"},{"id":14858,"name":"京港澳高速巴陵服务区充电站（广州方向）","longitude":"113.27571","latitude":"29.0752675","img":"/styles/pcmap/img/c/gjdw.png","fastChargingPileCount":4,"slowChargingPileCount":0,"address":"京港澳高速巴陵服务区（广州方向）"},{"id":14864,"name":"京港澳高速雁城服务区充电站（广州方向）","longitude":"112.84303","latitude":"26.9597276","img":"/styles/pcmap/img/c/gjdw.png","fastChargingPileCount":2,"slowChargingPileCount":0,"address":"京港澳高速雁城服务区（广州方向）"},{"id":14869,"name":"京港澳高速朱亭服务区充电站（广州方向）","longitude":"113.03961","latitude":"27.4076155","img":"/styles/pcmap/img/c/gjdw.png","fastChargingPileCount":4,"slowChargingPileCount":0,"address":"京港澳高速朱亭服务区（广州方向）"},{"id":14871,"name":"京港澳高速耒阳服务区充电站（广州方向）","longitude":"112.54604","latitude":"26.3009693","img":"/styles/pcmap/img/c/gjdw.png","fastChargingPileCount":4,"slowChargingPileCount":0,"address":"京港澳高速耒阳服务区（广州方向）"},{"id":14885,"name":"京港澳高速长沙服务区充电站（广州方向）","longitude":"113.07922","latitude":"28.2702537","img":"/styles/pcmap/img/c/gjdw.png","fastChargingPileCount":4,"slowChargingPileCount":0,"address":"京港澳高速长沙服务区（广州方向）"},{"id":14893,"name":"京港澳高速平江服务区充电站（广州方向）","longitude":"113.27063","latitude":"28.6506065","img":"/styles/pcmap/img/c/gjdw.png","fastChargingPileCount":2,"slowChargingPileCount":0,"address":"京港澳高速平江服务区（广州方向）"},{"id":14906,"name":"京港澳高速临湘服务区充电站（广州方向）","longitude":"113.51829","latitude":"29.4800589","img":"/styles/pcmap/img/c/gjdw.png","fastChargingPileCount":2,"slowChargingPileCount":0,"address":"京港澳高速临湘服务区（广州方向）"},{"id":14907,"name":"京港澳高速羊楼司服务区充电站（广州方向）","longitude":"113.68651","latitude":"29.5633347","img":"/styles/pcmap/img/c/gjdw.png","fastChargingPileCount":4,"slowChargingPileCount":0,"address":"京港澳高速羊楼司服务区（广州方向）"},{"id":17300,"name":"长沙潇湘晨报","longitude":"113.005198464571","latitude":"28.144630489734","img":"/styles/pcmap/img/c/xxcd.png","fastChargingPileCount":0,"slowChargingPileCount":5,"address":"长沙市天心区韶山南路258号"},{"id":17301,"name":"长沙麓山枫情","longitude":"112.917976592803","latitude":"28.209326883977","img":"/styles/pcmap/img/c/xxcd.png","fastChargingPileCount":3,"slowChargingPileCount":2,"address":"长沙市岳麓汽车西站南园路128号"},{"id":17302,"name":"长沙红星美凯龙","longitude":"113.022014231679","latitude":"28.1095011752008","img":"/styles/pcmap/img/c/xxcd.png","fastChargingPileCount":0,"slowChargingPileCount":5,"address":"长沙市雨花区中意一路619"},{"id":17473,"name":"长沙芯城科技园南区充电站","longitude":"112.882104","latitude":"28.234526","img":"/styles/pcmap/img/c/trd.png","fastChargingPileCount":4,"slowChargingPileCount":12,"address":"湖南省长沙市岳麓区岳麓西大道588号园区"},{"id":17474,"name":"长沙芯城科技园北区充电站","longitude":"112.881580","latitude":"28.235211","img":"/styles/pcmap/img/c/trd.png","fastChargingPileCount":4,"slowChargingPileCount":12,"address":"湖南省长沙市岳麓区岳麓西大道588号园区"},{"id":17486,"name":"长沙五强商务中心充电站","longitude":"112.914640","latitude":"28.228976","img":"/styles/pcmap/img/c/trd.png","fastChargingPileCount":2,"slowChargingPileCount":18,"address":"湖南省长沙市岳麓区高新开发区麓天路2号"},{"id":17537,"name":"长沙红星灯世界充电站","longitude":"113.017365","latitude":"28.111532","img":"/styles/pcmap/img/c/trd.png","fastChargingPileCount":0,"slowChargingPileCount":9,"address":"湖南省长沙市雨花区杉木冲东路199号"},{"id":17628,"name":"长沙新世界创邸充电站","longitude":"113.032892","latitude":"28.164258","img":"/styles/pcmap/img/c/trd.png","fastChargingPileCount":4,"slowChargingPileCount":6,"address":"湖南省长沙市雨花区劳动东路139号"},{"id":17646,"name":"湘潭滨湖小区充电站","longitude":"112.901063","latitude":"27.863397","img":"/styles/pcmap/img/c/trd.png","fastChargingPileCount":2,"slowChargingPileCount":8,"address":"湖南省湘潭市雨湖区迎宾东路171号"},{"id":17683,"name":"长沙环通物流充电站","longitude":"113.237823","latitude":"28.145759","img":"/styles/pcmap/img/c/trd.png","fastChargingPileCount":2,"slowChargingPileCount":0,"address":"湖南省长沙市长沙县034县道附近"},{"id":17684,"name":"浏阳市妇幼充电站","longitude":"113.633922","latitude":"28.155238","img":"/styles/pcmap/img/c/trd.png","fastChargingPileCount":0,"slowChargingPileCount":2,"address":"湖南省长沙市浏阳市北正北路61号"},{"id":17721,"name":"湘潭美高梅国际大酒店充电站","longitude":"112.922958","latitude":"27.846874","img":"/styles/pcmap/img/c/trd.png","fastChargingPileCount":0,"slowChargingPileCount":12,"address":"湖南省湘潭市岳塘区建设中路3号"},{"id":17910,"name":"长沙卜蜂莲花2期","longitude":"113.090886130241","latitude":"28.2511611809493","img":"/styles/pcmap/img/c/xxcd.png","fastChargingPileCount":0,"slowChargingPileCount":10,"address":"长沙市长沙县开元路98号"},{"id":18184,"name":"湘潭国土资源局快充充电站","longitude":"112.937394","latitude":"27.899905","img":"/styles/pcmap/img/c/trd.png","fastChargingPileCount":4,"slowChargingPileCount":0,"address":"湖南省湘潭市湘潭县北二环路"},{"id":18185,"name":"湘潭国土资源局慢充充电站","longitude":"112.937443","latitude":"27.899904","img":"/styles/pcmap/img/c/trd.png","fastChargingPileCount":0,"slowChargingPileCount":12,"address":"湖南省湘潭市湘潭县北二环路"},{"id":18191,"name":"浏阳幸福社区桩群","longitude":"113.391099472254","latitude":"28.2303332559842","img":"/styles/pcmap/img/c/xxcd.png","fastChargingPileCount":0,"slowChargingPileCount":3,"address":"浏阳市洞阳镇湖南尔康制药股份有限公司"},{"id":18192,"name":"浏阳长郡桩群","longitude":"113.412098933781","latitude":"28.2165077905125","img":"/styles/pcmap/img/c/xxcd.png","fastChargingPileCount":0,"slowChargingPileCount":6,"address":"浏阳市北盛镇长郡浏阳实验学校"},{"id":18483,"name":"长沙博物馆充电站","longitude":"112.986444","latitude":"28.248678","img":"/styles/pcmap/img/c/trd.png","fastChargingPileCount":2,"slowChargingPileCount":12,"address":"湖南省长沙市开福区湘江北路"},{"id":18484,"name":"长沙图书馆新馆充电站","longitude":"112.985821","latitude":"28.247462","img":"/styles/pcmap/img/c/trd.png","fastChargingPileCount":4,"slowChargingPileCount":12,"address":"湖南省长沙市开福区湘江北路"},{"id":18485,"name":"长沙规划展示馆充电站","longitude":"112.987156","latitude":"28.247425","img":"/styles/pcmap/img/c/trd.png","fastChargingPileCount":2,"slowChargingPileCount":7,"address":"湖南省长沙市开福区湘江北路"},{"id":18490,"name":"八一小区桩群","longitude":"113.07773","latitude":"28.216596","img":"/styles/pcmap/img/c/xxcd.png","fastChargingPileCount":8,"slowChargingPileCount":1,"address":"高家坡路与长冲路交叉路口东南"},{"id":18523,"name":"长沙湘核大厦充电站","longitude":"113.074605","latitude":"28.275926","img":"/styles/pcmap/img/c/trd.png","fastChargingPileCount":2,"slowChargingPileCount":6,"address":"湖南省长沙市长沙县滨湖西路26号"},{"id":18524,"name":"湘潭市中级人民法院慢充充电站","longitude":"112.960627","latitude":"27.835615","img":"/styles/pcmap/img/c/trd.png","fastChargingPileCount":0,"slowChargingPileCount":9,"address":"湖南省湘潭市岳塘区湘潭大道58号"},{"id":18525,"name":"湘潭市中级人民法院快充充电站","longitude":"112.960627","latitude":"27.835615","img":"/styles/pcmap/img/c/trd.png","fastChargingPileCount":4,"slowChargingPileCount":6,"address":"湖南省湘潭市岳塘区湘潭大道58号"},{"id":18709,"name":"豫园大酒店桩群","longitude":"113.413308","latitude":"28.227013","img":"/styles/pcmap/img/c/xxcd1.png","fastChargingPileCount":0,"slowChargingPileCount":6,"address":"浏阳工业园豫景置业豫园步行街"},{"id":18710,"name":"蓝思E中心","longitude":"113.42223","latitude":"28.230246","img":"/styles/pcmap/img/c/xxcd1.png","fastChargingPileCount":0,"slowChargingPileCount":10,"address":"浏阳市洞阳镇石岩冲湘台路e中心"},{"id":18711,"name":"中惠新农村","longitude":"113.409766","latitude":"28.23382","img":"/styles/pcmap/img/c/xxcd1.png","fastChargingPileCount":0,"slowChargingPileCount":6,"address":"浏阳市洞阳镇康万路（美佳超市西）"},{"id":18734,"name":"湖南现代凯莱大酒店充电站","longitude":"112.994220","latitude":"28.101480","img":"/styles/pcmap/img/c/trd.png","fastChargingPileCount":4,"slowChargingPileCount":19,"address":"湖南省长沙市天心区芙蓉南路二段128号"},{"id":18802,"name":"湖南省气象局北院充电站","longitude":"112.993954","latitude":"28.165513","img":"/styles/pcmap/img/c/trd.png","fastChargingPileCount":0,"slowChargingPileCount":9,"address":"湖南省长沙市雨花区黄土岭路296号"},{"id":18818,"name":"长沙兴威名座大厦充电站","longitude":"113.001820","latitude":"28.178086","img":"/styles/pcmap/img/c/trd.png","fastChargingPileCount":4,"slowChargingPileCount":12,"address":"湖南省长沙市雨花区韶山北路460号"},{"id":18924,"name":"长沙汇财大厦充电站","longitude":"113.042706","latitude":"28.120456","img":"/styles/pcmap/img/c/trd.png","fastChargingPileCount":4,"slowChargingPileCount":0,"address":"湖南省长沙市雨花区湘府东路99号"},{"id":18925,"name":"长沙亚商大厦充电站","longitude":"113.013910","latitude":"28.126069","img":"/styles/pcmap/img/c/trd.png","fastChargingPileCount":5,"slowChargingPileCount":2,"address":"湖南省长沙市雨花区中意路66号"},{"id":18926,"name":"湖南星享尊品酒店充电站","longitude":"113.038470","latitude":"28.119146","img":"/styles/pcmap/img/c/trd.png","fastChargingPileCount":3,"slowChargingPileCount":0,"address":"湖南省长沙市雨花区湘府东路二段160号"},{"id":18927,"name":"长沙大鸿杰座充电站","longitude":"112.996979","latitude":"28.164909","img":"/styles/pcmap/img/c/trd.png","fastChargingPileCount":4,"slowChargingPileCount":1,"address":"湖南省长沙市雨花区雨花路102号"},{"id":19030,"name":"长沙华瑞金都酒店充电站","longitude":"113.047087","latitude":"28.203548","img":"/styles/pcmap/img/c/trd.png","fastChargingPileCount":4,"slowChargingPileCount":6,"address":"湖南省长沙市芙蓉区远大路"},{"id":19031,"name":"长沙创谷广告产业园充电站","longitude":"112.979462","latitude":"28.099309","img":"/styles/pcmap/img/c/trd.png","fastChargingPileCount":4,"slowChargingPileCount":0,"address":"湖南省长沙市天心区雀园路568号"},{"id":19051,"name":"长沙梦网景园小区充电站","longitude":"113.007134","latitude":"28.118213","img":"/styles/pcmap/img/c/trd.png","fastChargingPileCount":4,"slowChargingPileCount":7,"address":"湖南省长沙市雨花区湘府中路178号"},{"id":19075,"name":"湖南省公安厅交管局2号车库充电站","longitude":"113.069741","latitude":"28.236111","img":"/styles/pcmap/img/c/trd.png","fastChargingPileCount":0,"slowChargingPileCount":6,"address":"湖南省长沙市长沙县长永高速公路与博展路交汇处"},{"id":19076,"name":"湖南省公安厅交管局顺安楼充电站","longitude":"113.069741","latitude":"28.236111","img":"/styles/pcmap/img/c/trd.png","fastChargingPileCount":3,"slowChargingPileCount":0,"address":"湖南省长沙市长沙县长永高速公路与博展路交汇处"},{"id":19172,"name":"湖南交通职业学院大巴充电站","longitude":"113.191778","latitude":"28.146892","img":"/styles/pcmap/img/c/trd.png","fastChargingPileCount":2,"slowChargingPileCount":0,"address":"湖南省长沙市长沙县干杉镇"},{"id":19412,"name":"长沙金麓西岸和苑充电站","longitude":"112.959315","latitude":"28.252858","img":"/styles/pcmap/img/c/trd.png","fastChargingPileCount":6,"slowChargingPileCount":0,"address":"湖南省长沙市岳麓区银杉路626号"},{"id":19413,"name":"湖南行怡特来电新能源充电站","longitude":"112.948117","latitude":"28.115120","img":"/styles/pcmap/img/c/trd.png","fastChargingPileCount":9,"slowChargingPileCount":0,"address":"湖南省长沙市望城区潇湘南路168号"},{"id":19414,"name":"湘潭东方金谷产业园充电站","longitude":"112.991999","latitude":"27.852965","img":"/styles/pcmap/img/c/trd.png","fastChargingPileCount":0,"slowChargingPileCount":6,"address":"湖南省湘潭市岳塘区楚天路"},{"id":19589,"name":"长沙杨家山东方之珠充电站","longitude":"113.025358","latitude":"28.191479","img":"/styles/pcmap/img/c/trd.png","fastChargingPileCount":3,"slowChargingPileCount":0,"address":"湖南省长沙市芙蓉区杨家山东方之珠"},{"id":19976,"name":"长沙岳麓区渔人码头充电站","longitude":"112.970818","latitude":"28.233482","img":"/styles/pcmap/img/c/ccz.png","fastChargingPileCount":0,"slowChargingPileCount":10,"address":"长沙市岳麓区潇湘北路三段1088号滨江文创市集"},{"id":20018,"name":"长沙信息职业学校充电站","longitude":"113.045211","latitude":"28.072554","img":"/styles/pcmap/img/c/trd.png","fastChargingPileCount":4,"slowChargingPileCount":12,"address":"湖南省长沙市雨花区圭白路108号环保科技园"},{"id":20032,"name":"长沙韦尔斯利酒店充电站","longitude":"113.110840","latitude":"28.223238","img":"/styles/pcmap/img/c/trd.png","fastChargingPileCount":9,"slowChargingPileCount":2,"address":"湖南省长沙市长沙县盼盼路88号(盼盼路和东四路交汇处)"},{"id":20095,"name":"长沙周南梅溪湖中学慢充站","longitude":"112.897052","latitude":"28.179705","img":"/styles/pcmap/img/c/trd.png","fastChargingPileCount":0,"slowChargingPileCount":6,"address":"湖南省长沙市岳麓区梅溪湖映日路1188号"},{"id":20096,"name":"长沙周南梅溪湖中学快充站","longitude":"112.896809","latitude":"28.179641","img":"/styles/pcmap/img/c/trd.png","fastChargingPileCount":3,"slowChargingPileCount":0,"address":"湖南省长沙市岳麓区梅溪湖映日路1188号"},{"id":20166,"name":"长沙湖南农业大学大礼堂充电站","longitude":"113.091135","latitude":"28.186065","img":"/styles/pcmap/img/c/ccz.png","fastChargingPileCount":0,"slowChargingPileCount":9,"address":"长沙市芙蓉区农大路1号"},{"id":20170,"name":"株洲建富酒店充电站","longitude":"113.167857","latitude":"27.838593","img":"/styles/pcmap/img/c/ccz.png","fastChargingPileCount":0,"slowChargingPileCount":4,"address":"株洲市荷塘区红港中路327号"},{"id":20173,"name":"长沙湖南农业大学十六教学楼充电站","longitude":"113.086503","latitude":"28.187089","img":"/styles/pcmap/img/c/ccz.png","fastChargingPileCount":0,"slowChargingPileCount":5,"address":" 长沙市芙蓉区农大路1号十六教学楼"},{"id":20177,"name":"湖南益阳市湖乡情酒店充电站","longitude":"112.328682","latitude":"28.703894","img":"/styles/pcmap/img/c/ccz.png","fastChargingPileCount":0,"slowChargingPileCount":10,"address":"湖南省益阳市资阳区长春镇云梦方舟度假区"},{"id":20180,"name":"长沙湖南省政府充电站","longitude":"112.993152","latitude":"28.125208","img":"/styles/pcmap/img/c/ccz.png","fastChargingPileCount":1,"slowChargingPileCount":10,"address":" 湘府西路8号"},{"id":20181,"name":"长沙湖南农业大学修业广场充电站","longitude":"113.091483","latitude":"28.190074","img":"/styles/pcmap/img/c/ccz.png","fastChargingPileCount":0,"slowChargingPileCount":9,"address":"长沙市芙蓉区农大路1号"},{"id":20183,"name":"长沙湖南农业大学八教学楼充电站","longitude":"113.093034","latitude":"28.190174","img":"/styles/pcmap/img/c/ccz.png","fastChargingPileCount":0,"slowChargingPileCount":5,"address":" 长沙市芙蓉区农大路1号8教学楼"},{"id":20185,"name":"长沙湖南农业大学十教学楼充电站","longitude":"113.092875","latitude":"28.188350","img":"/styles/pcmap/img/c/ccz.png","fastChargingPileCount":0,"slowChargingPileCount":5,"address":" 长沙市芙蓉区农大路1号"},{"id":20186,"name":"株洲腾龙酒店充电站","longitude":"113.168655","latitude":"27.909070","img":"/styles/pcmap/img/c/ccz.png","fastChargingPileCount":0,"slowChargingPileCount":6,"address":"株洲市石峰区云龙示范区明礼路1号"},{"id":20190,"name":"长沙市林业局充电站","longitude":"112.914155","latitude":"28.232044","img":"/styles/pcmap/img/c/ccz.png","fastChargingPileCount":0,"slowChargingPileCount":6,"address":"长沙市岳麓区岳麓大道218号"},{"id":20191,"name":"长沙湖南农业大学图书馆充电站","longitude":"113.092009","latitude":"28.188290","img":"/styles/pcmap/img/c/ccz.png","fastChargingPileCount":0,"slowChargingPileCount":10,"address":" 长沙市芙蓉区农大路1号图书馆"},{"id":20193,"name":"长沙丽发新城充电站","longitude":"113.028696","latitude":"28.066193","img":"/styles/pcmap/img/c/ccz.png","fastChargingPileCount":0,"slowChargingPileCount":12,"address":"长沙市天心区丽发新城"},{"id":20194,"name":"株洲磐龙世纪城充电站","longitude":"113.189240","latitude":"27.923488","img":"/styles/pcmap/img/c/ccz.png","fastChargingPileCount":0,"slowChargingPileCount":5,"address":"株洲市荷塘区云龙大道附近"},{"id":20195,"name":"株洲石宋路东湖公园水手餐厅充电站","longitude":"113.106606","latitude":"28.200785","img":"/styles/pcmap/img/c/ccz.png","fastChargingPileCount":0,"slowChargingPileCount":4,"address":"株洲市石宋路东湖公园水手餐厅"},{"id":20197,"name":"株洲东环新城充电站","longitude":"113.188045","latitude":"27.837380","img":"/styles/pcmap/img/c/ccz.png","fastChargingPileCount":0,"slowChargingPileCount":5,"address":"株洲市荷塘区文化路火把冲"},{"id":20201,"name":"长沙湖南农业大学十二教学楼充电站","longitude":"113.085452","latitude":"28.185847","img":"/styles/pcmap/img/c/ccz.png","fastChargingPileCount":0,"slowChargingPileCount":5,"address":" 长沙市芙蓉区农大路1号十二教学楼"},{"id":20204,"name":"长沙西中心充电站","longitude":"112.919950","latitude":"28.216234","img":"/styles/pcmap/img/c/ccz.png","fastChargingPileCount":0,"slowChargingPileCount":18,"address":"长沙市岳麓区潇湘北路与岳麓大道交汇处"},{"id":20209,"name":"宁乡通程温泉大酒店充电站","longitude":"112.570562","latitude":"28.280339","img":"/styles/pcmap/img/c/ccz.png","fastChargingPileCount":0,"slowChargingPileCount":5,"address":"长沙市宁乡市宁乡大道与金洲大道交汇处附近"},{"id":20210,"name":"宁乡先导康城充电站","longitude":"112.548477","latitude":"28.259620","img":"/styles/pcmap/img/c/ccz.png","fastChargingPileCount":0,"slowChargingPileCount":3,"address":"宁乡市玉潭镇楚沩西路二十二号"},{"id":20212,"name":"株洲百园嘴山庄充电站","longitude":"113.139942","latitude":"27.788950","img":"/styles/pcmap/img/c/ccz.png","fastChargingPileCount":0,"slowChargingPileCount":4,"address":"株洲市芦淞区桥家侧大桥东行2公里路北"},{"id":20224,"name":"宁乡黑金时代充电站","longitude":"112.536470","latitude":"28.237897","img":"/styles/pcmap/img/c/ccz.png","fastChargingPileCount":0,"slowChargingPileCount":9,"address":"长沙市宁乡市白龙路与入园路交汇处附近"},{"id":20303,"name":"长沙贺龙体育馆充电站","longitude":"112.988955","latitude":"28.180534","img":"/styles/pcmap/img/c/ccz.png","fastChargingPileCount":0,"slowChargingPileCount":4,"address":"长沙市天心区芙蓉中路188号"},{"id":20305,"name":"长沙橄榄城充电站","longitude":"113.108636","latitude":"28.221927","img":"/styles/pcmap/img/c/ccz.png","fastChargingPileCount":0,"slowChargingPileCount":6,"address":"湖南省长沙市长沙县旭辉华庭西侧"},{"id":20306,"name":"长沙红花坡社区充电站","longitude":"113.011357","latitude":"28.170115","img":"/styles/pcmap/img/c/ccz.png","fastChargingPileCount":0,"slowChargingPileCount":9,"address":"长沙市芙蓉区曙光中路539号"},{"id":20641,"name":"长沙省政协充电站","longitude":"112.998399","latitude":"28.207943","img":"/styles/pcmap/img/c/ccz.png","fastChargingPileCount":0,"slowChargingPileCount":9,"address":"长沙市开福区长沙迎宾路189号"},{"id":20658,"name":"长沙芙蓉区红十字医院充电站","longitude":"113.069892","latitude":"28.206316","img":"/styles/pcmap/img/c/ccz.png","fastChargingPileCount":0,"slowChargingPileCount":4,"address":"长沙市芙蓉区远大二路与亚大路交汇处附近"},{"id":20660,"name":"长沙职业技术学院充电站","longitude":"112.845687","latitude":"28.220096","img":"/styles/pcmap/img/c/ccz.png","fastChargingPileCount":0,"slowChargingPileCount":1,"address":"长沙市岳麓区东方红镇正兴路157号"},{"id":20664,"name":"长沙马王堆同鑫家园小区充电站","longitude":"113.047395","latitude":"28.205083","img":"/styles/pcmap/img/c/ccz.png","fastChargingPileCount":0,"slowChargingPileCount":1,"address":"长沙市芙蓉区马王堆远大一路同鑫家园"},{"id":20682,"name":"长沙潇湘南大道充电站","longitude":"112.957123","latitude":"28.140160","img":"/styles/pcmap/img/c/ccz.png","fastChargingPileCount":3,"slowChargingPileCount":20,"address":"长沙市岳麓区潇湘南大道"},{"id":20683,"name":"长沙靳江河桥下充电站","longitude":"112.952373","latitude":"28.139649","img":"/styles/pcmap/img/c/ccz.png","fastChargingPileCount":4,"slowChargingPileCount":15,"address":"长沙市岳麓区靳江河桥下"},{"id":20689,"name":"长沙湖南省总工会（新院）充电站","longitude":"112.985421","latitude":"28.212867","img":"/styles/pcmap/img/c/ccz.png","fastChargingPileCount":2,"slowChargingPileCount":0,"address":"湖南省长沙市天心区中意一路1072号"},{"id":20692,"name":"宁乡东方现代城瑞程酒店充电站","longitude":"112.571646","latitude":"28.284835","img":"/styles/pcmap/img/c/ccz.png","fastChargingPileCount":1,"slowChargingPileCount":4,"address":"宁乡市东方现代城11栋"},{"id":20693,"name":"宁乡东方红郡充电站","longitude":"112.579733","latitude":"28.240341","img":"/styles/pcmap/img/c/ccz.png","fastChargingPileCount":0,"slowChargingPileCount":5,"address":"湖南省长沙市宁乡市S208(韶山路)"},{"id":20698,"name":"浏阳大瑶卫生院充电站","longitude":"113.730660","latitude":"27.988039","img":"/styles/pcmap/img/c/ccz.png","fastChargingPileCount":2,"slowChargingPileCount":8,"address":"浏阳市花炮大道中路81"},{"id":20704,"name":"浏阳高尔夫球场充电站","longitude":"113.579762","latitude":"28.159496","img":"/styles/pcmap/img/c/ccz.png","fastChargingPileCount":1,"slowChargingPileCount":7,"address":"湖南省长沙市浏阳市浏永公路附近"},{"id":20750,"name":"株洲顺吉汽车服务公司充电站","longitude":"113.135588","latitude":"27.824138","img":"/styles/pcmap/img/c/ccz.png","fastChargingPileCount":0,"slowChargingPileCount":5,"address":"湖南省株洲市天元区泰山路285"},{"id":21045,"name":"益阳仁兴电动车门面充电站","longitude":"112.330223","latitude":"28.615720","img":"/styles/pcmap/img/c/ccz.png","fastChargingPileCount":0,"slowChargingPileCount":3,"address":"湖南省益阳市资阳西路与319国道交叉口东北100米"},{"id":21053,"name":"长沙市科技新城充电站","longitude":"113.124640","latitude":"28.206980","img":"/styles/pcmap/img/c/ccz.png","fastChargingPileCount":1,"slowChargingPileCount":0,"address":"湖南省长沙市长沙县东六路有色大厦公交站东100米"},{"id":21054,"name":"湘潭九华泰富重工西门充电站","longitude":"112.951847","latitude":"27.951355","img":"/styles/pcmap/img/c/ccz.png","fastChargingPileCount":0,"slowChargingPileCount":9,"address":"湖南省湘潭市雨湖区九华工业园奔驰路6号"},{"id":21060,"name":"湘潭家多旺充电站","longitude":"112.932287","latitude":"27.813786","img":"/styles/pcmap/img/c/ccz.png","fastChargingPileCount":1,"slowChargingPileCount":0,"address":"湘潭市下摄司街家多旺广场"},{"id":21064,"name":"长沙爵士湘充电站","longitude":"113.127687","latitude":"28.224985","img":"/styles/pcmap/img/c/ccz.png","fastChargingPileCount":0,"slowChargingPileCount":6,"address":"湖南省长沙市长沙县盼盼路777号"},{"id":21066,"name":"湘潭江南银箭充电站","longitude":"112.955336","latitude":"27.825833","img":"/styles/pcmap/img/c/ccz.png","fastChargingPileCount":0,"slowChargingPileCount":4,"address":"湖南省湘潭市双拥南路99号附近\t"},{"id":21069,"name":"长沙科技新城二号充电站","longitude":"113.124640","latitude":"28.206980","img":"/styles/pcmap/img/c/ccz.png","fastChargingPileCount":1,"slowChargingPileCount":0,"address":"湖南省长沙市长沙县东六路有色大厦公交站东100米"},{"id":21073,"name":"湘潭金海农产品大市场充电站","longitude":"112.891363","latitude":"27.889222","img":"/styles/pcmap/img/c/ccz.png","fastChargingPileCount":2,"slowChargingPileCount":0,"address":"湖南省湘潭市湘潭市雨湖区"},{"id":21078,"name":"湘潭金迪纺织厂充电站","longitude":"113.023917","latitude":"27.958536","img":"/styles/pcmap/img/c/ccz.png","fastChargingPileCount":0,"slowChargingPileCount":4,"address":"湖南省湘潭市恒大翡翠华庭（晓塘路与月华交汇处）"},{"id":21079,"name":"长沙湘江新区管委会充电桩群","longitude":"112.918193","latitude":"28.198951","img":"/styles/pcmap/img/c/ccz.png","fastChargingPileCount":1,"slowChargingPileCount":0,"address":"湖南省长沙市岳麓区麓景路850号梅溪湖国际研发中心7栋"},{"id":21086,"name":"长沙一汽长久博腾充电桩群","longitude":"112.930887","latitude":"28.146958","img":"/styles/pcmap/img/c/ccz.png","fastChargingPileCount":0,"slowChargingPileCount":3,"address":"湖南省长沙市岳麓区岳麓街道五星村99号"},{"id":21099,"name":"湘潭昭山七星村充电站","longitude":"113.058237","latitude":"27.955764","img":"/styles/pcmap/img/c/ccz.png","fastChargingPileCount":0,"slowChargingPileCount":6,"address":"湖南省湘潭市昭山七星村村部同心广场"},{"id":21100,"name":"湘潭昭山村委充电站","longitude":"113.082774","latitude":"27.963700","img":"/styles/pcmap/img/c/ccz.png","fastChargingPileCount":0,"slowChargingPileCount":6,"address":"湖南省湘潭市昭山镇昭山村村民安置区昭山镇"},{"id":21103,"name":"湘潭高新区科技金融服务中心充电站","longitude":"112.952839","latitude":"27.829792","img":"/styles/pcmap/img/c/ccz.png","fastChargingPileCount":0,"slowChargingPileCount":6,"address":"湖南省湘潭市岳塘区晓塘路"},{"id":21104,"name":"湘潭高新路铁路桥充电站","longitude":"112.962305","latitude":"28.341248","img":"/styles/pcmap/img/c/ccz.png","fastChargingPileCount":0,"slowChargingPileCount":6,"address":"湖南省湘潭市湘大新路铁路桥"}]